City_ID,City,Lat,Lng,Max Temp,Humidity,Pressure,Cloudiness,Wind Speed,Country,Date
0,yarmouth,41.7057,-70.2286,73.09,81.0,1022.0,20.0,12.66,US,1718665908.0
1,stanley,54.868,-1.6985,51.71,92.0,1012.0,20.0,6.91,GB,1718666197.0
2,oistins,13.0667,-59.5333,82.49,89.0,1011.0,40.0,13.8,BB,1718666198.0
3,blackmans bay,-43.0167,147.3167,43.74,94.0,1018.0,100.0,1.01,AU,1718665946.0
4,invercargill,-46.4,168.35,47.01,90.0,1024.0,47.0,10.0,NZ,1718666200.0
5,adamstown,-25.066,-130.1015,72.28,81.0,1014.0,99.0,14.29,PN,1718665921.0
6,waitangi,-43.9535,-176.5597,51.82,97.0,1013.0,93.0,8.01,NZ,1718665938.0
7,taiohae,,,,,,,,,
8,babayurt,43.6002,46.7789,76.96,78.0,1012.0,100.0,9.44,RU,1718666205.0
9,betio village,1.358,172.9211,83.48,75.0,1010.0,44.0,10.47,KI,1718666206.0
10,whitehorse,60.7161,-135.0538,77.77,20.0,1011.0,75.0,4.61,CA,1718666096.0
11,basco,20.4487,121.9702,85.53,78.0,1008.0,100.0,13.78,PH,1718666208.0
12,sitangkai,4.6628,119.3928,83.23,72.0,1009.0,100.0,4.12,PH,1718666209.0
13,bytow,54.1706,17.4919,56.21,95.0,1013.0,31.0,5.64,PL,1718666210.0
14,horta,38.5333,-28.6333,66.02,76.0,1025.0,95.0,8.01,PT,1718666211.0
15,chibougamau,49.9168,-74.3659,76.62,65.0,1011.0,100.0,5.75,CA,1718666212.0
16,hurricane,37.1753,-113.2899,96.48,11.0,1002.0,1.0,10.0,US,1718666129.0
17,bilibino,68.0546,166.4372,70.34,33.0,1013.0,56.0,4.97,RU,1718666215.0
18,perevolotskiy,51.8763,54.1938,71.8,74.0,1017.0,49.0,13.47,RU,1718666216.0
19,wailua homesteads,22.0669,-159.378,86.43,78.0,1020.0,75.0,17.27,US,1718666217.0
20,port-aux-francais,-49.35,70.2167,37.87,67.0,1000.0,27.0,26.46,TF,1718665926.0
21,grytviken,-54.2811,-36.5092,25.93,86.0,992.0,41.0,6.87,GS,1718665932.0
22,minas de marcona,-15.2119,-75.1103,53.6,89.0,1014.0,57.0,19.48,PE,1718666220.0
23,mikhaylovsk,45.1283,42.0256,71.82,68.0,1017.0,0.0,8.95,RU,1718666221.0
24,bubaque,11.2833,-15.8333,80.71,79.0,1012.0,91.0,6.31,GW,1718666223.0
25,cable beach,,,,,,,,,
26,lebu,-37.6167,-73.65,51.06,85.0,1010.0,58.0,14.56,CL,1718666225.0
27,sultanah,24.4926,39.5857,100.85,8.0,1008.0,20.0,6.91,SA,1718666226.0
28,itaituba,-4.2761,-55.9836,79.05,73.0,1009.0,85.0,1.83,BR,1718666227.0
29,ribeira grande,38.5167,-28.7,66.78,76.0,1025.0,97.0,8.01,PT,1718666228.0
30,hilo,19.7297,-155.09,80.94,92.0,1020.0,75.0,10.36,US,1718666229.0
31,papatowai,-46.5619,169.4708,45.99,81.0,1024.0,100.0,15.1,NZ,1718665934.0
32,edinburgh of the seven seas,-37.0676,-12.3116,55.11,66.0,1022.0,100.0,11.43,SH,1718666232.0
33,port lincoln,-34.7333,135.8667,54.86,87.0,1017.0,100.0,5.73,AU,1718666233.0
34,kangding,30.0513,101.9603,61.09,98.0,1010.0,100.0,3.02,CN,1718666234.0
35,badger,64.8,-147.5333,82.36,28.0,1011.0,40.0,5.75,US,1718665961.0
36,ippy,6.2679,21.2247,68.02,99.0,1014.0,97.0,5.35,CF,1718666191.0
37,fort mcmurray,56.7268,-111.381,44.19,93.0,1007.0,100.0,13.8,CA,1718666226.0
38,benguela,-12.5763,13.4055,68.32,88.0,1014.0,4.0,4.41,AO,1718666238.0
39,ushuaia,-54.8,-68.3,20.46,96.0,1012.0,94.0,3.58,AR,1718665813.0
40,olonkinbyen,70.9221,-8.7187,32.02,84.0,1017.0,59.0,5.37,SJ,1718666240.0
41,remire-montjoly,4.9167,-52.2667,80.64,89.0,1011.0,0.0,3.44,GF,1718666242.0
42,iqaluit,63.7506,-68.5145,42.53,60.0,1000.0,20.0,4.61,CA,1718666243.0
43,uturoa,-16.7333,-151.4333,78.48,78.0,1014.0,20.0,14.14,PF,1718665964.0
44,udachny,66.4167,112.4,49.39,47.0,1012.0,29.0,1.05,RU,1718666245.0
45,punta arenas,-53.15,-70.9167,30.31,64.0,1009.0,40.0,10.36,CL,1718666212.0
46,itaiba,-8.9475,-37.4228,67.41,93.0,1016.0,42.0,7.05,BR,1718666247.0
47,mirny,62.5353,113.9611,48.42,85.0,1009.0,62.0,10.16,RU,1718666248.0
48,aasiaat,68.7098,-52.8699,40.1,81.0,1001.0,60.0,11.52,GL,1718666249.0
49,college,64.8569,-147.8028,82.45,26.0,1010.0,40.0,5.75,US,1718666251.0
50,cabo san lucas,22.8909,-109.9124,94.3,31.0,1005.0,0.0,11.5,MX,1718665977.0
51,ar ruways,24.1103,52.7306,86.5,74.0,1001.0,1.0,5.53,AE,1718666253.0
52,sivas,39.7916,37.0019,59.63,67.0,1021.0,0.0,3.44,TR,1718666254.0
53,moose jaw,50.4001,-105.5344,50.27,87.0,1011.0,100.0,10.36,CA,1718666193.0
54,bethel,41.3712,-73.414,81.77,64.0,1018.0,0.0,9.22,US,1718665933.0
55,embi,48.8264,58.1442,76.98,51.0,1015.0,70.0,8.21,KZ,1718666257.0
56,sumbe,-11.2061,13.8437,68.49,86.0,1014.0,34.0,5.75,AO,1718666258.0
57,bredasdorp,-34.5322,20.0403,54.5,77.0,1011.0,5.0,5.66,ZA,1718666259.0
58,novyy urengoy,66.0833,76.6333,43.12,79.0,1011.0,65.0,14.05,RU,1718666261.0
59,warsaw,52.2298,21.0118,69.78,74.0,1011.0,0.0,6.91,PL,1718666222.0
60,thompson,55.7435,-97.8558,59.04,37.0,1003.0,61.0,12.8,CA,1718665925.0
61,hawaiian paradise park,19.5933,-154.9731,81.73,79.0,1020.0,75.0,10.36,US,1718665923.0
62,yei,4.095,30.6779,67.41,81.0,1012.0,49.0,4.38,SS,1718666265.0
63,vilyuchinsk,52.9306,158.4028,52.07,82.0,1020.0,100.0,5.17,RU,1718666266.0
64,port mathurin,-19.6833,63.4167,74.48,84.0,1016.0,84.0,6.71,MU,1718666267.0
65,puerto natales,-51.7236,-72.4875,25.47,91.0,1009.0,79.0,2.06,CL,1718665899.0
66,albany,42.6001,-73.9662,87.8,61.0,1018.0,26.0,1.01,US,1718666101.0
67,yellowknife,62.456,-114.3525,60.42,45.0,1007.0,75.0,11.5,CA,1718666154.0
68,bata,1.8639,9.7658,77.9,88.0,1012.0,91.0,7.05,GQ,1718666272.0
69,port saint john's,-31.6229,29.5448,64.74,48.0,1013.0,17.0,6.04,ZA,1718666273.0
70,west island,-12.1568,96.8225,76.98,94.0,1012.0,75.0,11.5,CC,1718665954.0
71,longyearbyen,78.2186,15.6401,44.44,70.0,1024.0,0.0,11.5,SJ,1718665966.0
72,christchurch,-43.5333,172.6333,49.68,95.0,1021.0,100.0,3.44,NZ,1718666207.0
73,kingston,17.997,-76.7936,85.15,74.0,1010.0,20.0,16.11,JM,1718666090.0
74,yala,6.3333,101.25,76.6,95.0,1010.0,100.0,2.57,TH,1718666278.0
75,kamina,-8.7386,24.9906,61.16,42.0,1015.0,0.0,1.61,CD,1718666279.0
76,vilyuysk,63.7553,121.6247,43.86,82.0,1010.0,100.0,6.13,RU,1718666281.0
77,north bay,46.3168,-79.4663,82.42,65.0,1014.0,75.0,10.36,CA,1718666073.0
78,anloga,5.7947,0.8973,80.17,81.0,1013.0,58.0,9.24,GH,1718666283.0
79,ponta delgada,37.7333,-25.6667,65.19,77.0,1023.0,75.0,13.8,PT,1718666284.0
80,la passe,45.5549,-0.8967,68.23,94.0,1009.0,100.0,8.52,FR,1718666285.0
81,jamestown,42.097,-79.2353,85.59,76.0,1018.0,0.0,8.05,US,1718665995.0
82,big bend,-26.8167,31.9333,50.09,93.0,1019.0,0.0,0.0,SZ,1718666287.0
83,homer,59.6425,-151.5483,60.04,78.0,1019.0,0.0,19.57,US,1718666289.0
84,aykhal,66.0,111.5,46.94,53.0,1012.0,76.0,5.7,RU,1718666290.0
85,susuman,62.7833,148.1667,57.16,50.0,1013.0,100.0,9.15,RU,1718666291.0
86,aghajari,30.7006,49.8315,84.42,30.0,1000.0,0.0,6.91,IR,1718666292.0
87,hasaki,35.7333,140.8333,66.6,97.0,1007.0,100.0,6.73,JP,1718666293.0
88,dudinka,69.4058,86.1778,41.16,73.0,1007.0,100.0,1.95,RU,1718666295.0
89,neiafu,-18.65,-173.9833,83.08,78.0,1015.0,40.0,12.66,TO,1718666296.0
90,ilulissat,69.2167,-51.1,55.42,54.0,1000.0,75.0,18.41,GL,1718665962.0
91,nar'yan-mar,67.6713,53.087,37.69,69.0,1025.0,6.0,4.74,RU,1718666298.0
92,oodweyne,9.4092,45.064,75.76,46.0,1010.0,93.0,17.34,SO,1718666299.0
93,talnakh,69.4865,88.3972,40.98,74.0,1007.0,100.0,3.36,RU,1718665927.0
94,lincoln city,44.9582,-124.0179,63.28,83.0,1019.0,28.0,4.0,US,1718666301.0
95,hayma',,,,,,,,,
96,estes park,40.3772,-105.5217,82.36,32.0,986.0,9.0,8.01,US,1718666004.0
97,pisco,-13.7,-76.2167,68.05,73.0,1012.0,0.0,11.5,PE,1718666305.0
98,emerald,-23.5333,148.1667,52.34,44.0,1021.0,0.0,2.1,AU,1718666306.0
99,ishurdi,24.1333,89.0833,86.32,78.0,999.0,100.0,16.13,BD,1718666307.0
100,bonthe,7.5264,-12.505,77.77,88.0,1012.0,100.0,7.65,SL,1718666308.0
101,tolanaro,-25.0319,46.9987,66.27,82.0,1021.0,20.0,4.61,MG,1718666309.0
102,enewetak,11.3474,162.3373,82.89,79.0,1012.0,63.0,16.24,MH,1718666310.0
103,mar del plata,-38.0023,-57.5575,57.09,78.0,1011.0,0.0,5.75,AR,1718666118.0
104,petropavlovsk-kamchatsky,53.0452,158.6483,50.59,66.0,1020.0,75.0,4.47,RU,1718666312.0
105,tadine,-21.55,167.8833,76.15,62.0,1014.0,0.0,10.58,NC,1718666313.0
106,avarua,-21.2078,-159.775,77.05,69.0,1017.0,40.0,10.36,CK,1718666315.0
107,egilsstadir,65.2653,-14.3948,39.11,81.0,1019.0,20.0,1.14,IS,1718666316.0
108,puerto ayora,-0.7393,-90.3518,72.55,95.0,1010.0,55.0,1.99,EC,1718666317.0
109,afaahiti,-17.75,-149.2833,80.47,82.0,1014.0,25.0,12.73,PF,1718666318.0
110,malango,-2.9627,119.9001,66.88,95.0,1014.0,15.0,1.3,ID,1718666319.0
111,bardai,11.65,7.2333,82.35,52.0,1012.0,9.0,2.28,NG,1718666320.0
112,dunda,-8.1167,34.25,55.51,70.0,1019.0,0.0,3.76,TZ,1718666321.0
113,puerto san carlos,,,,,,,,,
114,roma,43.2128,-75.4557,85.93,59.0,1022.0,0.0,1.01,US,1718666324.0
115,angaur state,6.906,134.13,82.92,72.0,1009.0,100.0,0.49,PW,1718666325.0
116,luanda,-8.8368,13.2343,69.19,93.0,1014.0,71.0,8.39,AO,1718666326.0
117,marietta,33.9526,-84.5499,91.08,53.0,1018.0,75.0,9.22,US,1718665893.0
118,haiku-pauwela,20.9219,-156.3051,85.23,67.0,1016.0,40.0,24.16,US,1718666328.0
119,la cruz,23.9167,-106.9,83.82,66.0,1005.0,16.0,8.68,MX,1718666329.0
120,delanggu,-7.6167,110.6833,73.72,90.0,1012.0,6.0,2.39,ID,1718666330.0
121,luderitz,-26.6481,15.1594,56.26,85.0,1019.0,0.0,3.22,,1718666331.0
122,vadso,70.0744,29.7487,50.88,93.0,1017.0,40.0,16.11,NO,1718665919.0
123,kuanda,56.3161,116.0806,49.59,87.0,1007.0,93.0,4.25,RU,1718666334.0
124,hadibu,12.65,54.0333,81.99,78.0,1006.0,100.0,14.27,YE,1718666335.0
125,ust-nera,64.5667,143.2,67.57,43.0,1007.0,43.0,3.49,RU,1718666336.0
126,notodden,59.5594,9.2585,54.0,89.0,1005.0,60.0,3.31,NO,1718666337.0
127,saipan,15.1355,145.701,88.5,66.0,1013.0,40.0,13.8,MP,1718666338.0
128,hermanus,-34.4187,19.2345,56.8,81.0,1012.0,4.0,8.12,ZA,1718666339.0
129,hamilton,39.1834,-84.5333,93.9,53.0,1015.0,0.0,10.36,US,1718665957.0
130,tiksi,71.6872,128.8694,44.78,75.0,1007.0,20.0,10.04,RU,1718666341.0
131,olinda,-8.0089,-34.8553,78.53,69.0,1014.0,40.0,6.91,BR,1718666343.0
132,zhaoyuan,37.3592,120.3964,80.04,40.0,1006.0,18.0,7.85,CN,1718666344.0
133,khandyga,62.6667,135.6,63.86,47.0,1009.0,57.0,4.25,RU,1718666345.0
134,margaret river,-33.95,115.0667,60.17,76.0,1019.0,64.0,17.18,AU,1718666346.0
135,houlton,46.1262,-67.8403,67.6,71.0,1018.0,100.0,6.91,US,1718666294.0
136,urucui,-7.2294,-44.5561,82.74,41.0,1011.0,33.0,3.29,BR,1718666348.0
137,new norfolk,-42.7826,147.0587,44.92,86.0,1022.0,68.0,1.72,AU,1718666350.0
138,kapuskasing,49.4169,-82.4331,78.89,44.0,1008.0,100.0,5.75,CA,1718666351.0
139,atamyrat,37.8357,65.2106,83.61,27.0,1006.0,0.0,10.31,TM,1718666352.0
140,san antonio de pale,-1.4014,5.6325,76.37,82.0,1013.0,90.0,13.85,GQ,1718666289.0
141,uzda,53.4627,27.2137,57.72,97.0,1013.0,4.0,7.09,BY,1718666354.0
142,port elizabeth,-33.918,25.5701,64.31,65.0,1014.0,0.0,10.36,ZA,1718666355.0
143,selfoss,63.9331,-20.9971,49.05,82.0,1020.0,99.0,6.64,IS,1718666356.0
144,igarka,67.4667,86.5833,43.77,69.0,1007.0,100.0,4.72,RU,1718666357.0
145,jaumave,23.4167,-99.3833,96.13,28.0,1005.0,0.0,13.44,MX,1718666359.0
146,kolonia town,6.964,158.206,86.0,79.0,1012.0,100.0,11.5,FM,1718666360.0
147,kita,13.0349,-9.4895,78.35,81.0,1012.0,98.0,6.49,ML,1718666361.0
148,iskateley,67.6803,53.1512,37.67,69.0,1025.0,6.0,4.68,RU,1718666362.0
149,sur,22.5667,59.5289,92.46,47.0,999.0,7.0,8.81,OM,1718666363.0
150,happy valley-goose bay,53.3168,-60.3315,66.51,55.0,1009.0,100.0,14.97,CA,1718666364.0
151,sandila,27.0833,80.5167,96.73,37.0,996.0,33.0,15.3,IN,1718666365.0
152,fort irwin,35.2627,-116.6848,93.02,12.0,1000.0,0.0,20.71,US,1718666366.0
153,mata-utu,-13.2816,-176.1745,82.87,80.0,1013.0,17.0,16.06,WF,1718666368.0
154,oriximina,-1.7656,-55.8661,80.2,74.0,1009.0,84.0,3.47,BR,1718666369.0
155,toulepleu guere,6.574,-8.4259,72.16,98.0,1014.0,100.0,3.89,CI,1718666370.0
156,port antonio,18.18,-76.4612,85.91,80.0,1011.0,100.0,9.64,JM,1718666371.0
157,weener,53.1667,7.35,53.96,94.0,1012.0,64.0,2.82,DE,1718666372.0
158,muzayri',,,,,,,,,
159,ipoti,7.8738,5.0769,70.11,90.0,1013.0,41.0,3.04,NG,1718666375.0
160,antofagasta,-23.65,-70.4,60.08,91.0,1016.0,37.0,10.54,CL,1718666376.0
161,carnarvon,-24.8667,113.6333,65.43,75.0,1019.0,0.0,21.23,AU,1718666377.0
162,ancud,-41.8697,-73.8203,48.02,81.0,1002.0,41.0,13.98,CL,1718666246.0
163,igrim,63.1906,64.4162,45.82,85.0,1020.0,3.0,4.56,RU,1718666379.0
164,kodiak,57.79,-152.4072,62.11,51.0,1018.0,0.0,4.61,US,1718666380.0
165,calliope,-24.0,151.2,59.7,44.0,1019.0,0.0,5.75,AU,1718666381.0
166,puerto madryn,-42.7692,-65.0385,55.24,42.0,997.0,100.0,23.78,AR,1718666209.0
167,st. john's,47.5649,-52.7093,58.39,67.0,1021.0,20.0,6.91,CA,1718666384.0
168,port alfred,-33.5906,26.891,70.65,41.0,1009.0,85.0,20.27,ZA,1718665970.0
169,anadyr,64.75,177.4833,52.3,62.0,1017.0,0.0,11.18,RU,1718666386.0
170,hithadhoo,-0.6,73.0833,82.08,76.0,1009.0,75.0,7.52,MV,1718665967.0
171,tocache,-8.1842,-76.5125,77.97,76.0,1009.0,42.0,1.9,PE,1718666388.0
172,mao,39.8885,4.2658,72.16,94.0,1014.0,0.0,9.22,ES,1718666389.0
173,gorno-altaysk,51.9561,85.955,60.76,96.0,1005.0,95.0,6.26,RU,1718666390.0
174,myrina,39.8797,25.0742,70.84,68.0,1014.0,0.0,4.61,GR,1718666391.0
175,tazovsky,67.4667,78.7,36.75,96.0,1010.0,99.0,14.14,RU,1718666393.0
176,messini,37.0511,22.0078,78.19,60.0,1014.0,30.0,3.44,GR,1718666394.0
177,mount gambier,-37.8333,140.7667,39.99,86.0,1021.0,0.0,3.87,AU,1718666395.0
178,casablanca,33.5928,-7.6192,68.22,81.0,1016.0,1.0,4.94,MA,1718666177.0
179,pustoshka,56.3355,29.369,58.78,99.0,1009.0,100.0,8.3,RU,1718666397.0
180,sola,-13.8833,167.55,80.15,79.0,1013.0,16.0,1.97,VU,1718666398.0
181,praia da vitoria,38.7333,-27.0667,66.76,72.0,1025.0,75.0,14.99,PT,1718666250.0
182,shimokizukuri,40.8061,140.3861,79.52,46.0,1004.0,100.0,8.63,JP,1718666400.0
183,usta muhammad,28.1794,68.0445,92.71,49.0,996.0,0.0,12.03,PK,1718666402.0
184,bengkulu,-3.8004,102.2655,75.81,91.0,1011.0,94.0,4.38,ID,1718666403.0
185,kansk,56.2017,95.7175,56.28,93.0,1002.0,100.0,5.57,RU,1718666405.0
186,troy,42.6056,-83.1499,94.93,57.0,1014.0,0.0,4.61,US,1718666406.0
187,wajir,1.7471,40.0573,76.8,60.0,1013.0,73.0,15.84,KE,1718666407.0
188,fort bragg,35.139,-79.006,89.91,51.0,1019.0,0.0,5.75,US,1718666408.0
189,ulladulla,-35.35,150.4667,51.15,64.0,1018.0,3.0,5.99,AU,1718666409.0
190,ayr,55.4627,-4.6339,53.58,82.0,1014.0,40.0,13.8,GB,1718666410.0
191,kondrovo,54.8064,35.9278,66.69,97.0,1005.0,45.0,4.76,RU,1718666411.0
192,lawas,13.764,121.0566,82.04,81.0,1009.0,94.0,2.17,PH,1718666412.0
193,pathein,16.7833,94.7333,78.71,92.0,1006.0,100.0,4.43,MM,1718666187.0
194,dahab,28.501,34.5134,90.75,34.0,1006.0,0.0,12.33,EG,1718666415.0
195,fale old settlement,-9.3852,-171.2468,84.56,75.0,1011.0,13.0,18.68,TK,1718665968.0
196,levski,43.3667,25.1333,71.2,72.0,1016.0,0.0,3.98,BG,1718666417.0
197,margate,51.3813,1.3862,57.69,76.0,1014.0,100.0,1.01,GB,1718666391.0
198,atafu village,-8.5421,-172.5159,84.81,74.0,1011.0,10.0,17.96,TK,1718665935.0
199,seogwipo,,,,,,,,,
200,palikir - national government center,6.9248,158.1611,84.94,79.0,1012.0,100.0,11.5,FM,1718666421.0
201,san patricio,28.017,-97.5169,92.12,59.0,1007.0,39.0,20.65,US,1718666422.0
202,ishigaki,24.3448,124.1572,82.53,100.0,1008.0,75.0,9.22,JP,1718666424.0
203,tsiombe,-25.3,45.4833,63.84,75.0,1021.0,0.0,8.52,MG,1718666425.0
204,plock,52.5468,19.7064,59.23,95.0,1015.0,73.0,5.48,PL,1718666426.0
205,beira,-19.8436,34.8389,64.49,94.0,1019.0,0.0,2.3,MZ,1718666427.0
206,alofi,-19.0595,-169.9187,82.29,74.0,1015.0,75.0,10.36,NU,1718666428.0
207,zhangye,38.9342,100.4517,68.23,47.0,1005.0,26.0,6.46,CN,1718666391.0
208,aykol,,,,,,,,,
209,colonia,50.9333,6.95,62.58,90.0,1017.0,0.0,1.14,DE,1718666432.0
210,mana,5.6592,-53.7767,78.46,87.0,1011.0,9.0,7.45,GF,1718666433.0
211,gadani,25.1185,66.7299,86.22,82.0,1001.0,61.0,13.56,PK,1718666434.0
212,mournies,35.4764,24.0092,96.87,88.0,1013.0,0.0,5.75,GR,1718666435.0
213,nishinoomote,30.7333,131.0,75.51,86.0,1004.0,100.0,23.64,JP,1718666436.0
214,howrah,22.5892,88.3103,86.0,94.0,1000.0,75.0,13.8,IN,1718666437.0
215,mukhorshibir',,,,,,,,,
216,gillette,44.2911,-105.5022,63.52,68.0,998.0,75.0,14.97,US,1718666440.0
217,badr hunayn,23.7829,38.7905,94.62,26.0,1001.0,21.0,1.72,SA,1718666441.0
218,karratha,-20.7377,116.8463,70.16,83.0,1017.0,41.0,4.16,AU,1718666442.0
219,geraldton,-28.7667,114.6,55.81,88.0,1021.0,40.0,6.91,AU,1718666443.0
220,santa maria del oro,25.9333,-105.3667,72.05,51.0,1007.0,21.0,39.48,MX,1718666444.0
221,hotan,37.0997,79.9269,77.67,28.0,1003.0,92.0,14.99,CN,1718666445.0
222,shingu,33.7333,135.9833,68.58,99.0,1004.0,100.0,1.12,JP,1718666446.0
223,shiraz,29.6036,52.5388,74.64,31.0,1015.0,0.0,0.0,IR,1718666448.0
224,klyuchi,52.2667,79.1667,67.95,89.0,1006.0,75.0,7.43,RU,1718666449.0
225,bridgewater,44.3835,-64.5155,64.62,71.0,1022.0,98.0,10.36,CA,1718666450.0
226,barranca,-10.75,-77.7667,63.77,85.0,1012.0,18.0,9.35,PE,1718666440.0
227,barre,44.197,-72.5021,83.05,64.0,1020.0,75.0,4.61,US,1718666452.0
228,dunedin,-45.8742,170.5036,45.81,84.0,1023.0,100.0,10.0,NZ,1718666242.0
229,tobi village,,,,,,,,,
230,utrik,11.2278,169.8474,82.11,80.0,1012.0,89.0,16.84,MH,1718666455.0
231,boa vista,2.8197,-60.6733,84.18,65.0,1009.0,40.0,3.44,BR,1718666457.0
232,lucapa,-8.4192,20.7447,61.47,29.0,1015.0,2.0,4.07,AO,1718666458.0
233,thunder bay,48.4001,-89.3168,69.71,49.0,1011.0,75.0,9.22,CA,1718666313.0
234,hovd,48.0056,91.6419,61.0,54.0,1005.0,12.0,4.47,MN,1718666460.0
235,fuyu,45.1833,124.8167,67.06,56.0,1005.0,26.0,5.32,CN,1718666461.0
236,peniche,39.3558,-9.3811,65.1,97.0,1011.0,100.0,6.87,PT,1718666462.0
237,paradip garh,20.3167,86.6167,84.81,82.0,1001.0,100.0,13.22,IN,1718666463.0
238,mega,4.05,38.3,60.6,68.0,1015.0,93.0,12.19,ET,1718666465.0
239,holualoa,19.6228,-155.9522,78.64,83.0,1020.0,75.0,9.22,US,1718666466.0
240,nuku'alofa,-21.1333,-175.2,79.14,94.0,1017.0,75.0,10.36,TO,1718666467.0
241,port isabel,26.0734,-97.2086,91.49,72.0,1006.0,75.0,19.57,US,1718666468.0
242,touros,-5.1989,-35.4608,75.56,87.0,1014.0,8.0,11.41,BR,1718666469.0
243,mersing,2.4312,103.8405,75.11,94.0,1009.0,20.0,4.61,MY,1718666470.0
244,bamiantong,44.9333,130.5333,60.51,78.0,1005.0,2.0,2.26,CN,1718666471.0
245,santa rita do passa quatro,-21.7103,-47.4781,57.2,38.0,1015.0,31.0,3.6,BR,1718666472.0
246,mulanay,13.5222,122.4042,82.09,83.0,1009.0,73.0,0.98,PH,1718666474.0
247,prince rupert,54.3161,-130.3201,53.69,85.0,1018.0,100.0,13.8,CA,1718666294.0
248,kavaratti,10.5669,72.642,81.88,83.0,1007.0,99.0,7.87,IN,1718666351.0
249,suez,29.9737,32.5263,74.57,71.0,1010.0,0.0,9.51,EG,1718666477.0
250,tura,25.5198,90.2201,76.24,98.0,1001.0,100.0,7.81,IN,1718666478.0
251,mugia,43.1041,-9.2179,62.17,94.0,1009.0,51.0,9.46,ES,1718666479.0
252,lospalos,-8.5186,127.0025,71.24,75.0,1014.0,90.0,6.78,TL,1718666480.0
253,tuma,55.148,40.5537,64.56,97.0,1009.0,14.0,7.52,RU,1718666482.0
254,santa sylvina,-27.8326,-61.1375,65.05,82.0,1008.0,81.0,4.9,AR,1718666483.0
255,arkhangel'sk,64.5401,40.5433,57.31,72.0,1019.0,40.0,6.71,RU,1718666484.0
256,jinchang,38.4953,102.1739,70.43,47.0,1005.0,69.0,4.16,CN,1718666485.0
257,nemuro,43.3236,145.575,56.98,87.0,1006.0,100.0,13.15,JP,1718666486.0
258,alice springs,-23.7,133.8833,62.15,67.0,1019.0,5.0,0.0,AU,1718666357.0
259,menongue,-14.6585,17.691,47.25,40.0,1021.0,9.0,3.33,AO,1718666489.0
260,kampong dungun,3.2167,101.3167,79.09,84.0,1009.0,100.0,4.9,MY,1718666490.0
261,sete lagoas,-19.4658,-44.2467,70.68,50.0,1017.0,0.0,3.65,BR,1718666213.0
262,ta`u,-14.2336,-169.5144,81.48,78.0,1014.0,39.0,22.19,AS,1718666492.0
263,vingt cinq,,,,,,,,,
264,kyzyl,51.7,94.45,65.71,66.0,1004.0,24.0,1.79,RU,1718666494.0
265,polyarnyy,69.1989,33.4478,56.77,79.0,1018.0,99.0,3.44,RU,1718666496.0
266,tapes,-30.6733,-51.3958,61.11,95.0,1012.0,100.0,8.16,BR,1718666497.0
267,ujae,8.9322,165.7642,83.57,77.0,1011.0,24.0,14.97,MH,1718666498.0
268,mount isa,-20.7333,139.5,60.57,51.0,1021.0,4.0,0.0,AU,1718666499.0
269,alva,56.1528,-3.8051,55.42,89.0,1013.0,55.0,3.44,GB,1718666500.0
270,lompoc,34.6391,-120.4579,79.79,62.0,1008.0,0.0,20.71,US,1718666501.0
271,fada,9.5667,8.3,71.28,84.0,1013.0,55.0,1.86,NG,1718666502.0
272,broken hill,-31.95,141.4333,50.59,44.0,1020.0,100.0,5.28,AU,1718666503.0
273,palmer,42.1584,-72.3287,80.51,58.0,1021.0,75.0,17.27,US,1718666505.0
274,mildura,-34.2,142.15,46.74,57.0,1021.0,84.0,2.89,AU,1718666506.0
275,gebeit,21.0667,36.3167,87.37,21.0,1005.0,0.0,3.13,SD,1718666507.0
276,amiens,49.9,2.3,63.59,92.0,1013.0,100.0,3.44,FR,1718666508.0
277,island harbour,50.724,-1.2758,57.22,81.0,1013.0,100.0,3.89,GB,1718666509.0
278,fuvahmulah,,,,,,,,,
279,arnedo,42.2167,-2.1,69.3,46.0,1010.0,100.0,3.02,ES,1718666511.0
280,kananga,-5.8958,22.4178,66.45,46.0,1013.0,2.0,3.02,CD,1718666512.0
281,tosontsengel,48.7567,98.2839,52.93,81.0,1005.0,100.0,2.48,MN,1718666514.0
282,usogorsk,63.4106,48.6872,52.84,77.0,1023.0,9.0,5.08,RU,1718666515.0
283,kidal,18.4411,1.4078,94.06,20.0,1010.0,1.0,4.88,ML,1718666516.0
284,bandon,51.7469,-8.7425,56.79,87.0,1016.0,100.0,11.05,IE,1718666517.0
285,taroa,8.7058,171.2275,82.27,79.0,1011.0,83.0,12.91,MH,1718666518.0
286,rongelap,11.1635,166.8941,83.01,80.0,1012.0,74.0,16.37,MH,1718666519.0
287,ketchikan,55.3422,-131.6461,63.07,67.0,1017.0,40.0,10.36,US,1718666520.0
288,bataipora,-22.2953,-53.2711,76.53,35.0,1009.0,3.0,6.98,BR,1718666521.0
289,heroica zitacuaro,19.4,-100.3667,83.34,24.0,1002.0,3.0,5.64,MX,1718666523.0
290,yangjiang,21.85,111.9667,81.45,90.0,1005.0,100.0,2.59,CN,1718666524.0
291,sumbawa besar,-8.5,117.4333,68.72,77.0,1013.0,0.0,3.85,ID,1718666525.0
292,panaba,21.2833,-88.2667,78.4,94.0,1005.0,100.0,12.39,MX,1718666526.0
293,karasu,41.071,30.7854,64.0,69.0,1016.0,0.0,3.22,TR,1718666527.0
294,kani keli,-12.9536,45.1033,79.86,76.0,1015.0,36.0,15.46,YT,1718666528.0
295,enshi,30.3,109.4833,70.16,95.0,1006.0,100.0,0.96,CN,1718666529.0
296,gitarama,-2.0744,29.7567,63.86,72.0,1016.0,100.0,1.99,RW,1718666530.0
297,luco dei marsi,41.957,13.4736,66.07,68.0,1020.0,0.0,0.27,IT,1718666532.0
298,magistral'nyy,56.1725,107.4458,53.26,80.0,1005.0,100.0,3.94,RU,1718666533.0
299,konarka,19.9,86.1167,85.15,79.0,1002.0,100.0,13.42,IN,1718666534.0
300,fortuna,40.5982,-124.1573,66.92,57.0,1018.0,0.0,13.8,US,1718666535.0
301,ghanzi,-21.5667,21.7833,55.65,40.0,1019.0,0.0,5.01,BW,1718666536.0
302,tofol,5.3248,163.0078,83.98,84.0,1010.0,75.0,8.05,FM,1718666537.0
303,port augusta,-32.5,137.7667,54.79,66.0,1018.0,100.0,5.91,AU,1718666363.0
304,behshahr,36.6923,53.5526,73.35,65.0,1013.0,6.0,3.2,IR,1718666540.0
305,hsinchu,24.8036,120.9686,84.85,79.0,1005.0,94.0,1.99,TW,1718666541.0
306,pappinissheri,11.95,75.35,78.62,89.0,1007.0,83.0,2.48,IN,1718666542.0
307,leiyang,26.4024,112.8591,74.97,99.0,1003.0,100.0,5.7,CN,1718666543.0
308,kapa'a,22.0752,-159.319,87.78,77.0,1020.0,75.0,17.27,US,1718666544.0
309,yuzhno-kurilsk,44.0306,145.8556,57.4,85.0,1005.0,100.0,6.91,RU,1718666545.0
310,masterton,-40.9597,175.6575,57.88,84.0,1017.0,80.0,4.47,NZ,1718666546.0
311,pelabuhanratu,-6.9875,106.5514,78.39,88.0,1011.0,29.0,1.28,ID,1718666548.0
312,gornozavodsk,58.3758,58.3211,51.4,83.0,1022.0,51.0,1.74,RU,1718666549.0
313,labasa,-16.4167,179.3833,83.64,72.0,1014.0,77.0,7.05,FJ,1718666550.0
314,damongo,,,,,,,,,
315,suva,-18.1416,178.4415,83.68,84.0,1014.0,75.0,4.61,FJ,1718666552.0
316,sihanoukville,10.6093,103.5296,78.75,89.0,1008.0,75.0,12.66,KH,1718666553.0
317,pacific grove,36.6177,-121.9166,75.15,58.0,1011.0,0.0,11.01,US,1718666554.0
318,cabinda,-5.55,12.2,73.08,94.0,1013.0,100.0,7.34,AO,1718666555.0
319,la'ie,21.6477,-157.9253,85.96,71.0,1018.0,79.0,10.0,US,1718666557.0
320,espargos,,,,,,,,,
321,coronel suarez,-37.4547,-61.9334,50.11,69.0,1008.0,100.0,7.74,AR,1718666559.0
322,champerico,14.3,-91.9167,81.14,94.0,1007.0,100.0,10.31,GT,1718666560.0
323,taoudenni,22.6783,-3.9836,98.55,21.0,1009.0,57.0,8.48,ML,1718666561.0
324,bandarbeyla,9.4942,50.8122,77.88,82.0,1006.0,97.0,24.87,SO,1718666562.0
325,asosa,10.0667,34.5333,63.72,86.0,1013.0,100.0,3.18,ET,1718666563.0
326,belyy yar,53.6039,91.3903,66.09,88.0,1003.0,0.0,2.24,RU,1718666565.0
327,krasnapollye,53.3337,31.4014,60.91,98.0,1010.0,86.0,8.28,BY,1718666566.0
328,georgetown,5.4112,100.3354,80.53,83.0,1008.0,40.0,3.44,MY,1718666418.0
329,arafat,21.3594,39.9664,93.22,31.0,1002.0,0.0,3.38,SA,1718666568.0
330,lata,40.1629,-8.3327,64.08,96.0,1011.0,100.0,6.08,PT,1718666569.0
331,puerto baquerizo moreno,-0.9,-89.6,71.96,84.0,1011.0,78.0,7.99,EC,1718666532.0
332,sabang,5.8933,95.3214,84.67,72.0,1009.0,99.0,14.45,ID,1718666571.0
333,usinsk,65.9939,57.5281,41.07,65.0,1024.0,8.0,7.07,RU,1718666572.0
334,kotabumi,-4.8333,104.9,73.56,95.0,1011.0,23.0,3.78,ID,1718666573.0
335,auki,-8.7676,160.7034,83.41,76.0,1012.0,57.0,1.95,SB,1718666575.0
336,queenstown,-31.8976,26.8753,54.7,50.0,1014.0,16.0,11.99,ZA,1718666410.0
337,oeiras,-7.0253,-42.1311,84.72,37.0,1011.0,84.0,4.99,BR,1718666577.0
338,sandpoint,48.2766,-116.5533,64.69,42.0,1010.0,0.0,4.61,US,1718666578.0
339,bodo,67.28,14.405,62.78,68.0,1009.0,20.0,11.5,NO,1718666579.0
340,kruisfontein,-34.0033,24.7314,58.89,75.0,1011.0,30.0,11.01,ZA,1718666580.0
341,pacocha,-17.5833,-71.3333,62.37,88.0,1015.0,56.0,5.01,PE,1718666581.0
342,newman,37.3138,-121.0208,83.01,5.0,1007.0,4.0,20.67,US,1718666582.0
343,gadzhiyevo,69.2551,33.3362,57.07,81.0,1018.0,100.0,3.56,RU,1718666584.0
344,belokurikha,51.9959,84.9896,62.2,94.0,1006.0,100.0,5.79,RU,1718666585.0
345,gereida,11.2811,25.1414,81.09,61.0,1009.0,64.0,14.58,SD,1718666586.0
346,lautoka,-17.6167,177.4667,85.86,70.0,1014.0,40.0,9.22,FJ,1718666587.0
347,hanceville,34.0607,-86.7675,91.54,61.0,1016.0,99.0,5.06,US,1718666588.0
348,iwaki,37.05,140.8833,68.77,98.0,1008.0,100.0,3.51,JP,1718666589.0
349,kungalv,57.871,11.9805,57.18,89.0,1009.0,7.0,4.14,SE,1718666590.0
350,las palmas,28.4204,-14.0131,66.99,68.0,1017.0,100.0,18.41,ES,1718666591.0
351,sitka,57.0531,-135.33,57.09,67.0,1018.0,100.0,11.5,US,1718666593.0
352,lihue,21.9789,-159.3672,87.04,71.0,1020.0,75.0,17.27,US,1718666594.0
353,padang,-0.9492,100.3543,77.05,87.0,1011.0,67.0,4.83,ID,1718666595.0
354,isafjordur,66.0755,-23.124,40.51,87.0,1020.0,96.0,6.62,IS,1718666596.0
355,baise city,23.8997,106.6133,77.34,97.0,1002.0,100.0,0.89,CN,1718666597.0
356,dolinsk,47.35,142.8,57.79,88.0,999.0,99.0,9.37,RU,1718666598.0
357,madang,-5.2246,145.7966,80.92,78.0,1012.0,97.0,2.13,PG,1718666600.0
358,coquimbo,-29.9533,-71.3436,55.13,71.0,992.0,0.0,5.75,CL,1718666579.0
359,lensk,60.7253,114.9278,54.12,59.0,1009.0,72.0,0.36,RU,1718666602.0
360,san luis de la loma,17.2706,-100.8939,85.3,69.0,1005.0,100.0,11.25,MX,1718666603.0
361,greytown,-29.0642,30.5928,50.77,46.0,1017.0,4.0,3.56,ZA,1718666604.0
362,ondjiva,-17.0667,15.7333,53.26,25.0,1018.0,0.0,5.68,AO,1718666605.0
363,novokazalinsk,,,,,,,,,
364,kargasok,59.0556,80.8572,58.78,96.0,1000.0,91.0,2.68,RU,1718666607.0
365,chemolgan,43.1897,76.5292,65.86,46.0,1011.0,87.0,7.18,KZ,1718666609.0
366,yanchep,-31.55,115.6833,53.22,80.0,1022.0,27.0,0.98,AU,1718666610.0
367,nogliki,51.8333,143.1667,42.24,99.0,1000.0,100.0,8.01,RU,1718666611.0
368,ust'-barguzin,53.45,108.9833,52.68,92.0,1003.0,95.0,2.15,RU,1718666612.0
369,nyamira,-0.6318,34.6443,61.11,89.0,1015.0,100.0,3.36,KE,1718666613.0
370,bac lieu,9.285,105.7244,81.52,80.0,1008.0,21.0,7.87,VN,1718666614.0
371,hammerfest,70.6634,23.6821,63.05,67.0,1013.0,0.0,2.3,NO,1718666615.0
372,korla,41.7597,86.1469,78.35,25.0,1004.0,100.0,15.1,CN,1718666616.0
373,caister-on-sea,52.6481,1.7265,57.97,87.0,1013.0,77.0,6.71,GB,1718666618.0
374,nahiyat ash shinafiyah,31.5874,44.6602,100.45,11.0,1002.0,0.0,6.64,IQ,1718666619.0
375,oranjemund,-28.55,16.4333,58.24,88.0,1019.0,41.0,6.2,,1718666620.0
376,amarante do maranhao,-5.5667,-46.7422,78.33,52.0,1011.0,21.0,2.66,BR,1718666621.0
377,nyaunglebin,17.95,96.7333,75.85,98.0,1007.0,100.0,4.65,MM,1718666622.0
378,nili,33.7218,66.1302,63.77,41.0,1010.0,7.0,7.36,AF,1718666623.0
379,zouerate,22.7187,-12.4521,92.48,15.0,1011.0,0.0,14.61,MR,1718666624.0
380,genhe,50.7833,121.5167,53.58,70.0,1004.0,100.0,1.25,CN,1718666625.0
381,chinnamanur,9.8333,77.3833,76.05,86.0,1009.0,100.0,8.05,IN,1718666627.0
382,nuuk,64.1835,-51.7216,39.81,81.0,1005.0,100.0,27.63,GL,1718666628.0
383,qaqortoq,60.7167,-46.0333,35.58,98.0,1015.0,100.0,3.96,GL,1718666629.0
384,namibe,-15.1961,12.1522,64.31,78.0,1015.0,0.0,7.78,AO,1718666630.0
385,puerto lempira,15.2667,-83.7667,80.74,78.0,1007.0,75.0,5.75,HN,1718666631.0
386,isle of lewis,,,,,,,,,
387,puerto deseado,-47.7503,-65.8938,41.83,94.0,994.0,100.0,5.55,AR,1718666633.0
388,teknaf,20.8624,92.3058,81.05,88.0,1004.0,91.0,8.81,BD,1718666634.0
389,waingapu,-9.6567,120.2641,75.34,80.0,1013.0,40.0,11.34,ID,1718666635.0
390,olovyannaya,50.95,115.5667,65.03,50.0,999.0,89.0,2.46,RU,1718666637.0
391,coroata,-4.13,-44.1242,78.76,56.0,1011.0,9.0,3.0,BR,1718666638.0
392,richards bay,-28.783,32.0377,66.24,66.0,1016.0,60.0,16.62,ZA,1718666639.0
393,nola,40.922,14.5329,77.16,89.0,1018.0,0.0,0.87,IT,1718666640.0
394,yungay,-9.1383,-77.7436,61.23,75.0,1016.0,90.0,4.41,PE,1718666641.0
395,isla mujeres,21.2311,-86.731,82.45,89.0,1006.0,100.0,24.18,MX,1718666642.0
396,calca,-13.3333,-71.95,63.75,75.0,1015.0,97.0,5.17,PE,1718666643.0
397,poa,-23.5281,-46.3447,75.49,68.0,1018.0,0.0,2.3,BR,1718666645.0
398,tralee,52.2704,-9.7026,54.05,94.0,1018.0,93.0,3.36,IE,1718666646.0
399,crane,31.3974,-102.3501,99.66,24.0,999.0,0.0,29.08,US,1718666647.0
400,chonchi,-42.6128,-73.8092,45.61,83.0,1000.0,100.0,8.99,CL,1718666648.0
401,bima,-8.4667,118.7167,71.73,94.0,1013.0,0.0,3.51,ID,1718666649.0
402,sorong,-0.8833,131.25,77.79,91.0,1011.0,51.0,11.83,ID,1718666650.0
403,peterhead,57.5058,-1.7981,52.2,94.0,1011.0,8.0,12.28,GB,1718666651.0
404,ahau,,,,,,,,,
405,daru,-9.0763,143.2092,76.93,74.0,1014.0,24.0,12.59,PG,1718666654.0
406,martuk,50.7475,56.5056,71.49,63.0,1016.0,46.0,8.5,KZ,1718666412.0
407,mariehamn,60.0973,19.9348,54.82,100.0,1011.0,0.0,4.61,AX,1718666656.0
408,sandnessjoen,66.0217,12.6316,59.52,69.0,1007.0,87.0,10.38,NO,1718666657.0
409,kone,-21.0595,164.8658,73.17,67.0,1015.0,41.0,4.85,NC,1718666658.0
410,vorgashor,67.5833,63.95,31.77,80.0,1021.0,13.0,10.02,RU,1718666659.0
411,plastun,44.7561,136.2939,62.83,63.0,1001.0,26.0,7.27,RU,1718666660.0
412,lodwar,3.1191,35.5973,85.53,38.0,1009.0,99.0,9.42,KE,1718666661.0
413,constantia,44.1833,28.65,66.88,77.0,1016.0,8.0,11.79,RO,1718666382.0
414,felipe carrillo puerto,19.5833,-88.05,76.95,98.0,1004.0,100.0,6.67,MX,1718666442.0
415,zhangjiakou shi xuanhua qu,40.6103,115.0447,77.76,34.0,1004.0,99.0,1.86,CN,1718666665.0
416,kilkeel,54.062,-6.0031,53.94,89.0,1016.0,65.0,8.23,GB,1718666666.0
417,puerto gaitan,4.3133,-72.0816,79.61,80.0,1009.0,75.0,4.74,CO,1718666367.0
418,mili,6.0815,171.735,82.89,76.0,1011.0,82.0,10.18,MH,1718666668.0
419,manga,11.6636,-1.0731,81.05,65.0,1013.0,14.0,4.68,BF,1718666669.0
420,cairns city,,,,,,,,,
421,praia,14.9215,-23.5087,75.74,73.0,1013.0,20.0,13.8,CV,1718666430.0
422,perryton,36.4,-100.8027,91.2,46.0,998.0,0.0,29.15,US,1718666673.0
423,shohimardon,39.9839,71.8028,61.57,58.0,1016.0,83.0,3.24,UZ,1718666674.0
424,leava,-14.3,-178.1667,82.35,83.0,1013.0,39.0,14.36,WF,1718666675.0
425,tocopilla,-22.092,-70.1979,63.63,83.0,1016.0,14.0,10.51,CL,1718666676.0
426,fukuecho,32.6881,128.8419,71.96,83.0,1006.0,20.0,12.66,JP,1718666677.0
427,black point,-34.6187,137.8972,54.12,85.0,1018.0,100.0,9.04,AU,1718666678.0
428,imbituba,-28.24,-48.6703,71.85,98.0,1013.0,100.0,4.59,BR,1718666679.0
429,fisterra,42.9049,-9.2629,62.02,95.0,1009.0,43.0,10.49,ES,1718666681.0
430,semey,50.4111,80.2275,69.26,79.0,1007.0,21.0,6.15,KZ,1718666682.0
431,baiti,13.745,-14.7482,87.66,46.0,1010.0,88.0,11.16,SN,1718666683.0
432,thinadhoo,0.5333,72.9333,83.28,73.0,1009.0,29.0,7.14,MV,1718666471.0
433,alotau,,,,,,,,,
434,miles city,46.4083,-105.8406,70.77,43.0,998.0,0.0,18.41,US,1718666686.0
435,oborniki,52.6474,16.8141,65.16,87.0,1014.0,31.0,6.11,PL,1718666687.0
436,hampton bays,40.869,-72.5176,74.37,78.0,1022.0,0.0,10.36,US,1718666688.0
437,naryn,41.4287,75.9911,54.54,73.0,1016.0,99.0,0.47,KG,1718666690.0
438,kerikeri,-35.2268,173.9474,60.91,96.0,1011.0,39.0,1.99,NZ,1718666691.0
439,veinticinco de mayo,-35.4323,-60.1727,55.98,80.0,1012.0,31.0,1.99,AR,1718666398.0
440,dili,-8.5586,125.5736,74.3,44.0,1014.0,100.0,6.02,TL,1718666615.0
441,ankang,32.68,109.0172,73.22,75.0,1005.0,96.0,1.32,CN,1718666694.0
442,fort wellington,6.4,-57.6,77.61,87.0,1011.0,99.0,3.8,GY,1718666695.0
443,luorong,24.4058,109.6086,75.29,99.0,1002.0,100.0,5.84,CN,1718666696.0
444,yung shue wan,22.2333,114.1167,85.75,84.0,1006.0,95.0,3.0,HK,1718666697.0
445,carlsbad,33.1581,-117.3506,79.97,70.0,1007.0,100.0,8.05,US,1718666535.0
446,steinkjer,64.193,11.3851,53.51,78.0,1008.0,100.0,1.66,NO,1718666700.0
447,vernon,50.2581,-119.2691,62.13,69.0,1011.0,99.0,13.0,CA,1718666701.0
448,brandon,27.9378,-82.2859,90.14,66.0,1014.0,75.0,18.41,US,1718666702.0
449,weno,7.4515,151.8468,83.68,81.0,1010.0,97.0,19.26,FM,1718666703.0
450,flying fish cove,-10.4217,105.6791,78.48,83.0,1013.0,75.0,10.36,CX,1718666704.0
451,zeya,53.75,127.2667,57.83,56.0,1004.0,100.0,2.24,RU,1718666706.0
452,siwa oasis,29.2041,25.5195,84.31,34.0,1012.0,0.0,10.09,EG,1718666707.0
453,tidjikja,18.5564,-11.4271,95.59,25.0,1010.0,46.0,9.28,MR,1718666708.0
454,victoria,22.2855,114.1577,86.38,84.0,1006.0,97.0,10.0,HK,1718666557.0
455,manadhoo,5.7667,73.3833,83.8,76.0,1008.0,19.0,15.97,MV,1718666710.0
456,sarangani,5.4033,125.4636,80.64,81.0,1010.0,100.0,2.46,PH,1718666711.0
457,glace bay,46.1969,-59.957,68.86,52.0,1020.0,75.0,6.91,CA,1718666712.0
458,vuktyl,63.8567,57.3094,48.58,77.0,1023.0,3.0,2.82,RU,1718666713.0
459,bikin,46.8161,134.26,51.53,81.0,1005.0,95.0,2.3,RU,1718666715.0
460,nadym,65.5333,72.5167,41.36,74.0,1014.0,47.0,17.09,RU,1718666716.0
461,kristiansund,63.1115,7.732,53.65,82.0,1008.0,20.0,3.44,NO,1718666717.0
462,vilhena,-12.7406,-60.1458,73.62,68.0,1013.0,0.0,8.05,BR,1718666718.0
463,golaghat,26.5167,93.9667,76.84,98.0,1001.0,97.0,1.79,IN,1718666719.0
464,wurtulla,-26.7568,153.1256,63.05,64.0,1011.0,17.0,3.0,AU,1718666720.0
465,fort st. john,56.2499,-120.8529,60.69,29.0,1012.0,75.0,12.66,CA,1718666721.0
466,tual,-5.6667,132.75,78.8,75.0,1012.0,85.0,21.41,ID,1718666723.0
467,egersund,58.4513,5.9997,53.1,94.0,1008.0,63.0,6.98,NO,1718666548.0
468,onega,63.9061,38.1404,58.87,64.0,1018.0,82.0,10.16,RU,1718666725.0
469,lethem,3.3803,-59.7968,78.44,83.0,1010.0,35.0,5.53,GY,1718666726.0
470,axim,4.8699,-2.2405,78.6,82.0,1013.0,75.0,10.04,GH,1718666727.0
471,fuglafjordur,62.244,-6.814,45.07,93.0,1016.0,100.0,25.01,FO,1718666728.0
472,bhamo,24.2667,97.2333,74.86,99.0,1003.0,100.0,1.03,MM,1718666729.0
473,las lomitas,-24.7096,-60.593,65.39,96.0,1008.0,99.0,3.83,AR,1718666731.0
474,bikenibeu village,1.3673,173.1241,83.35,75.0,1010.0,49.0,10.4,KI,1718666732.0
475,jiexiu,37.0244,111.9125,78.17,43.0,1005.0,100.0,3.31,CN,1718666733.0
476,solikamsk,59.6196,56.7729,52.39,83.0,1023.0,15.0,3.29,RU,1718666734.0
477,isangel,-19.55,169.2667,78.91,83.0,1014.0,75.0,0.0,VU,1718666568.0
478,at-bashi,41.1702,75.8106,56.59,75.0,1017.0,100.0,1.12,KG,1718666736.0
479,arraial do cabo,-22.9661,-42.0278,71.56,78.0,1015.0,20.0,8.05,BR,1718666737.0
480,'ohonua,,,,,,,,,
481,vorkuta,67.5,64.0,32.41,78.0,1021.0,13.0,10.11,RU,1718666740.0
482,peace river,56.2501,-117.286,59.31,33.0,1010.0,75.0,12.66,CA,1718666741.0
483,metkovic,43.0542,17.6483,64.87,68.0,1017.0,0.0,3.71,HR,1718666742.0
484,okhotsk,59.3833,143.3,44.94,94.0,1013.0,100.0,19.24,RU,1718666743.0
485,reguengos de monsaraz,38.4253,-7.5349,64.04,81.0,1013.0,100.0,7.31,PT,1718666744.0
486,ashburton,-37.8626,145.0794,46.76,85.0,1019.0,17.0,1.01,AU,1718666745.0
487,matonga,-2.3833,34.0833,63.93,81.0,1015.0,22.0,1.79,TZ,1718666746.0
488,djenne,13.9061,-4.5533,90.03,44.0,1011.0,85.0,12.17,ML,1718666747.0
489,lelystad,52.5083,5.475,59.09,85.0,1014.0,100.0,1.01,NL,1718666462.0
490,bani,18.2833,-70.3333,83.86,72.0,1012.0,100.0,2.64,DO,1718666750.0
491,nagqu,31.5,92.0,39.83,92.0,1009.0,15.0,3.38,CN,1718666751.0
492,ryotsu-minato,38.0833,138.4333,68.36,75.0,1007.0,100.0,11.23,JP,1718666752.0
493,cidreira,-30.1811,-50.2056,63.64,94.0,1013.0,100.0,6.42,BR,1718666753.0
494,sirte,31.2089,16.5887,76.44,64.0,1014.0,8.0,13.96,LY,1718666754.0
495,nikolayevsk-on-amure,53.1406,140.73,43.0,98.0,1002.0,100.0,3.85,RU,1718666755.0
496,villa maria grande,-31.6656,-59.9018,59.77,88.0,1009.0,100.0,6.78,AR,1718666756.0
497,floresta,-8.6011,-38.5686,75.15,69.0,1014.0,16.0,13.56,BR,1718666757.0
498,sake,-1.5736,29.045,60.4,93.0,1018.0,42.0,1.97,CD,1718666759.0
499,narasannapeta,18.4167,84.05,80.96,80.0,1002.0,88.0,5.77,IN,1718666760.0
500,calvinia,-31.4707,19.776,50.52,90.0,1017.0,99.0,15.75,ZA,1718666761.0
501,novoishimskiy,53.1981,66.7694,60.31,91.0,1018.0,6.0,9.24,KZ,1718666762.0
502,badagry,6.4167,2.8833,78.82,86.0,1012.0,77.0,7.96,NG,1718666763.0
503,tukrah,32.5341,20.5791,75.74,59.0,1015.0,0.0,8.86,LY,1718666764.0
504,paranaiba,-19.6772,-51.1908,71.02,35.0,1012.0,2.0,6.8,BR,1718666765.0
505,kailua-kona,19.6406,-155.9956,82.36,84.0,1019.0,75.0,9.22,US,1718666766.0
506,guadalupe y calvo,26.1,-106.9667,79.56,29.0,1008.0,1.0,13.27,MX,1718666471.0
507,harstad,68.799,16.5293,63.25,72.0,1009.0,97.0,7.0,NO,1718666769.0
508,alpine,32.835,-116.7664,77.58,59.0,1009.0,0.0,6.91,US,1718666605.0
509,mendi,-6.1761,143.6513,61.97,75.0,1016.0,32.0,1.21,PG,1718666771.0
510,ulan bator,47.9077,106.8832,62.73,55.0,1004.0,40.0,2.24,MN,1718666772.0
511,cargados carajos,,,,,,,,,
512,xiuyan,40.2928,123.2744,70.05,76.0,1004.0,45.0,4.47,CN,1718666774.0
513,garachico,28.7781,-17.7646,68.11,64.0,1019.0,100.0,14.97,ES,1718666775.0
514,papao,-17.75,-149.55,82.08,83.0,1014.0,22.0,11.63,PF,1718666777.0
515,eyl,7.9803,49.8164,80.55,69.0,1008.0,77.0,20.15,SO,1718666778.0
516,cerkes,40.8116,32.8936,56.14,76.0,1018.0,0.0,0.38,TR,1718666779.0
517,tarazona de la mancha,39.2123,-1.9491,70.09,53.0,1011.0,43.0,10.16,ES,1718666780.0
518,opuwo,-18.0607,13.84,54.63,28.0,1018.0,0.0,3.67,,1718666781.0
519,abeche,13.8292,20.8324,84.61,43.0,1009.0,92.0,10.49,TD,1718666782.0
520,nkurenkuru,,,,,,,,,
521,jiuquan,39.7432,98.5174,65.98,49.0,1005.0,58.0,2.33,CN,1718666784.0
522,staritsa,56.5075,34.9354,64.38,99.0,1006.0,100.0,5.55,RU,1718666786.0
523,kenai,60.5544,-151.2583,53.69,85.0,1019.0,100.0,13.8,US,1718666787.0
524,massawa,15.6097,39.45,89.31,50.0,1002.0,48.0,3.33,ER,1718666788.0
525,nova sintra,14.8667,-24.7167,74.1,81.0,1013.0,34.0,19.66,CV,1718666789.0
526,mukah,,,,,,,,,
527,port-gentil,-0.7193,8.7815,76.96,83.0,1012.0,20.0,9.22,GA,1718666791.0
528,as suwayq,23.8494,57.4386,92.61,42.0,999.0,3.0,8.43,OM,1718666792.0
529,jabor,5.921,169.6434,82.58,78.0,1011.0,24.0,10.74,MH,1718666793.0
530,sigayevo,56.4216,53.7757,59.77,78.0,1019.0,100.0,6.93,RU,1718666795.0
531,el calafate,-50.3408,-72.2768,25.43,86.0,1008.0,100.0,3.09,AR,1718666796.0
532,niquelandia,-14.4739,-48.4597,67.84,39.0,1014.0,0.0,2.68,BR,1718666797.0
533,formosa do rio preto,-11.0483,-45.1931,70.41,38.0,1014.0,0.0,3.29,BR,1718666798.0
534,chalastra,40.6286,22.7328,80.71,54.0,1015.0,37.0,1.74,GR,1718666799.0
535,bushland beach,,,,,,,,,
536,coahuayana de hidalgo,18.7,-103.6583,83.17,70.0,1006.0,55.0,6.67,MX,1718666801.0
537,coxim,-18.5067,-54.76,76.78,30.0,1010.0,2.0,3.27,BR,1718666802.0
538,manatutu,,,,,,,,,
539,lerwick,60.1545,-1.1494,51.8,90.0,1009.0,98.0,11.07,GB,1718666805.0
540,kagizman,40.1567,43.1342,64.67,70.0,1017.0,0.0,4.88,TR,1718666806.0
541,acarau,-2.8856,-40.12,77.32,84.0,1012.0,45.0,10.49,BR,1718666807.0
542,felidhoo,,,,,,,,,
543,azhikkal,11.9,75.3667,79.09,87.0,1007.0,86.0,2.73,IN,1718666809.0
544,kamphaeng phet,16.25,99.5,82.17,69.0,1006.0,100.0,1.9,TH,1718666810.0
545,luwuk,-0.9516,122.7875,73.33,90.0,1013.0,62.0,5.57,ID,1718666812.0
546,caala,-12.8525,15.5606,49.24,31.0,1020.0,22.0,2.46,AO,1718666813.0
547,inarajan village,13.2736,144.7484,86.4,84.0,1012.0,99.0,15.5,GU,1718666814.0
548,ad dabbah,18.05,30.95,90.45,37.0,1005.0,98.0,18.21,SD,1718666711.0
549,bambui,-20.0064,-45.9769,62.26,51.0,1017.0,2.0,3.31,BR,1718666816.0
550,piti village,13.4626,144.6933,86.31,81.0,1013.0,40.0,16.11,GU,1718666817.0
551,moapa valley,36.5805,-114.4703,102.67,7.0,993.0,4.0,23.94,US,1718666818.0
552,gutao,37.2025,112.1781,77.4,37.0,1005.0,80.0,1.95,CN,1718666819.0
553,dawson creek,55.7666,-120.2362,60.44,29.0,1011.0,20.0,12.66,CA,1718666821.0
554,tejen,37.3834,60.5054,86.32,22.0,1008.0,24.0,8.66,TM,1718666822.0
555,rio grande,-32.035,-52.0986,60.94,92.0,1014.0,100.0,12.12,BR,1718666823.0
556,inekar,,,,,,,,,
557,skagen,57.7209,10.5839,55.15,86.0,1010.0,36.0,11.32,DK,1718666825.0
558,paita,-5.0892,-81.1144,68.0,74.0,1010.0,0.0,20.56,PE,1718666826.0
559,nova vicosa,-17.8919,-39.3719,73.36,84.0,1018.0,0.0,5.26,BR,1718666827.0
560,chernyshevskiy,63.0128,112.4714,47.84,82.0,1009.0,89.0,9.17,RU,1718666828.0
561,kalmunai,7.4167,81.8167,79.83,83.0,1007.0,26.0,4.92,LK,1718666830.0
562,takayama,36.1333,137.25,59.59,99.0,1007.0,100.0,3.33,JP,1718666831.0
563,guozhen,34.3659,107.359,75.09,60.0,1004.0,100.0,2.26,CN,1718666832.0
564,kayangel,8.0823,134.7173,81.14,77.0,1009.0,98.0,3.18,PW,1718666651.0
565,puerto aysen,-45.4,-72.7,41.49,99.0,999.0,100.0,2.01,CL,1718666552.0
566,mbanza kongo,-6.267,14.2401,66.0,82.0,1014.0,20.0,2.98,AO,1718666835.0
567,salmon arm,50.6998,-119.3024,56.52,82.0,1009.0,91.0,3.44,CA,1718666836.0
568,kyaikto,17.3,97.0167,78.4,91.0,1007.0,100.0,2.82,MM,1718666837.0
569,ixtapa,20.7,-105.2,82.22,74.0,1005.0,100.0,6.91,MX,1718666838.0
570,haapsalu,58.9431,23.5414,58.01,87.0,1012.0,86.0,7.07,EE,1718666840.0
571,undurkhaan,47.3194,110.6556,69.89,43.0,999.0,49.0,3.47,MN,1718666841.0
572,dadonghai,,,,,,,,,
573,westport,41.1415,-73.3579,80.65,66.0,1020.0,0.0,9.22,US,1718666784.0
574,victorica,-36.2151,-65.4359,57.0,43.0,1004.0,100.0,9.78,AR,1718666844.0
575,ungsang-nodongjagu,42.3578,130.4622,64.24,54.0,1004.0,0.0,3.2,KP,1718666845.0
576,khash,28.2211,61.2158,79.38,19.0,1007.0,0.0,6.62,IR,1718666846.0
577,tanabe,33.7333,135.3667,76.21,100.0,1002.0,75.0,20.71,JP,1718666848.0
578,mahibadhoo,3.7833,72.9667,84.2,74.0,1009.0,82.0,14.09,MV,1718666849.0
579,magadan,59.5667,150.8,47.44,86.0,1018.0,100.0,5.37,RU,1718666850.0
